[
  {
    "key": "US:New York",
    "name": "US:New York",
    "latitude": 40.7316,
    "longitude": -73.9985
  },
  {
    "key": "BR:São Paulo",
    "name": "BR:São Paulo",
    "latitude": -23.6283,
    "longitude": -46.6409
  },
  {
    "key": "BR:Belo Horizonte",
    "name": "BR:Belo Horizonte",
    "latitude": -19.9029,
    "longitude": -43.9572
  },
  {
    "key": "BR:São Caetano do Sul",
    "name": "BR:São Caetano do Sul",
    "latitude": -23.6266,
    "longitude": -46.5638
  },
  {
    "key": "BR:Jundiaí",
    "name": "BR:Jundiaí",
    "latitude": -23.203,
    "longitude": -46.9008
  },
  {
    "key": "BR:Franca",
    "name": "BR:Franca",
    "latitude": -20.5689,
    "longitude": -47.3347
  },
  {
    "key": "BR:Santos",
    "name": "BR:Santos",
    "latitude": -23.8566,
    "longitude": -46.2705
  },
  {
    "key": "AR:Buenos Aires",
    "name": "AR:Buenos Aires",
    "latitude": -34.6022,
    "longitude": -58.3845
  },
  {
    "key": "BR:Santo André",
    "name": "BR:Santo André",
    "latitude": -23.673,
    "longitude": -46.5302
  },
  {
    "key": "BR:Campo Grande",
    "name": "BR:Campo Grande",
    "latitude": -20.4428,
    "longitude": -54.6464
  },
  {
    "key": "BR:Petrópolis",
    "name": "BR:Petrópolis",
    "latitude": -22.3822,
    "longitude": -43.1591
  },
  {
    "key": "BR:Parobe",
    "name": "BR:Parobe",
    "latitude": -29.6675,
    "longitude": -50.8557
  },
  {
    "key": "BR:Brasília",
    "name": "BR:Brasília",
    "latitude": -15.7792,
    "longitude": -47.9341
  },
  {
    "key": "BR:Curitiba",
    "name": "BR:Curitiba",
    "latitude": -25.5026,
    "longitude": -49.2908
  },
  {
    "key": "BR:Paraguacu Paulista",
    "name": "BR:Paraguacu Paulista",
    "latitude": -22.4673,
    "longitude": -50.646
  },
  {
    "key": "BR:Uberlândia",
    "name": "BR:Uberlândia",
    "latitude": -19.0233,
    "longitude": -48.3348
  },
  {
    "key": "BR:Rio das Ostras",
    "name": "BR:Rio das Ostras",
    "latitude": -22.4549,
    "longitude": -41.9531
  },
  {
    "key": "BR:Rio de Janeiro",
    "name": "BR:Rio de Janeiro",
    "latitude": -22.9485,
    "longitude": -43.3436
  },
  {
    "key": "US:Miami",
    "name": "US:Miami",
    "latitude": 25.6696,
    "longitude": -80.2875
  },
  {
    "key": "BR:São José dos Campos",
    "name": "BR:São José dos Campos",
    "latitude": -23.1023,
    "longitude": -45.922
  },
  {
    "key": "BR:Teresopolis",
    "name": "BR:Teresopolis",
    "latitude": -22.4153,
    "longitude": -42.9869
  },
  {
    "key": "BR:Duque de Caxias",
    "name": "BR:Duque de Caxias",
    "latitude": -22.7886,
    "longitude": -43.3175
  },
  {
    "key": "BR:Diadema",
    "name": "BR:Diadema",
    "latitude": -23.6859,
    "longitude": -46.621
  },
  {
    "key": "BR:Uberaba",
    "name": "BR:Uberaba",
    "latitude": -19.5483,
    "longitude": -47.9414
  },
  {
    "key": "BR:Juiz de Fora",
    "name": "BR:Juiz de Fora",
    "latitude": -21.749,
    "longitude": -43.4382
  }
]